[
 {
   "category": "Chicken Wings",
   "address": "1386 Bayview Avenue\nToronto, ON M4G 3A1",
   "name": "Pizza Hut",
   "phone": "(416) 932-3211",
   "priceRange": "$11-30",
   "website": "pizzahut.ca",
   "yelp": "https://www.yelp.ca/biz/pizza-hut-toronto",
   "latitude": 43.70062,
   "longitude": -79.373517
 },
 {
   "category": "Chicken Wings",
   "address": "2070 Queen Street E\nToronto, ON M4E 1C9",
   "name": "Pizza Hut",
   "phone": "(416) 693-2555",
   "priceRange": "Under $10",
   "website": "pizzahut.ca",
   "yelp": "https://www.yelp.ca/biz/pizza-hut-toronto-2",
   "latitude": 43.670827,
   "longitude": -79.297163
 },
 {
   "category": "Chicken Wings",
   "address": "2066 Kipling Avenue\nToronto, ON M9W 4J9",
   "name": "Pizza Hut",
   "phone": "(416) 743-0062",
   "priceRange": "$11-30",
   "website": "pizzahut.ca",
   "yelp": "https://www.yelp.ca/biz/pizza-hut-toronto-32",
   "latitude": 43.714239,
   "longitude": -79.568729
 },
 {
   "category": "Chicken Wings",
   "address": "1630 Albion Road\nToronto, ON M9V 5H5",
   "name": "Pizza Hut",
   "phone": "(416) 743-8313",
   "priceRange": "",
   "website": "pizzahut.ca",
   "yelp": "https://www.yelp.ca/biz/pizza-hut-toronto-30",
   "latitude": 43.742062,
   "longitude": -79.593384
 },
 {
   "category": "Italian",
   "address": "1862 Eglinton Avenue W\nToronto, ON M6E 2J4",
   "name": "Pizza Hut",
   "phone": "(416) 787-4500",
   "priceRange": "",
   "website": "pizzahut.ca",
   "yelp": "https://www.yelp.ca/biz/pizza-hut-toronto-22",
   "latitude": 43.695673,
   "longitude": -79.451515
 },
 {
   "category": "Italian",
   "address": "643 Pharmacy Avenue\nToronto, ON M1L 3H3",
   "name": "Pizza Hut",
   "phone": "(416) 752-7091",
   "priceRange": "",
   "website": "pizzahut.ca/store",
   "yelp": "https://www.yelp.ca/biz/pizza-hut-toronto-26",
   "latitude": 43.710991,
   "longitude": -79.290828
 },
 {
   "category": "Italian",
   "address": "720 King Street W\nToronto, ON M5V 2T3",
   "name": "Pizza Hut",
   "phone": "(416) 504-1045",
   "priceRange": "",
   "website": "pizzahut.ca",
   "yelp": "https://www.yelp.ca/biz/pizza-hut-toronto-24",
   "latitude": 43.643673,
   "longitude": -79.404589
 },
 {
   "category": "Italian",
   "address": "77 Lower Jarvis\nToronto, ON M5E 1R8",
   "name": "Pizza Hut",
   "phone": "(416) 977-5061",
   "priceRange": "$11-30",
   "website": "pizzahut.ca",
   "yelp": "https://www.yelp.ca/biz/pizza-hut-toronto-14",
   "latitude": 43.647559,
   "longitude": -79.370453
 },
 {
   "category": "Italian",
   "address": "810 Church Street\nToronto, ON M4W 2M4",
   "name": "Pizza Hut",
   "phone": "(416) 927-7700",
   "priceRange": "$11-30",
   "website": "pizzahut.ca",
   "yelp": "https://www.yelp.ca/biz/pizza-hut-toronto-23",
   "latitude": 43.671973,
   "longitude": -79.385281
 },
 {
   "category": "Italian",
   "address": "2100 Bloor Street W\nToronto, ON M6S 4Y7",
   "name": "Pizza Hut",
   "phone": "(416) 763-5555",
   "priceRange": "Under $10",
   "website": "pizzahut.ca",
   "yelp": "https://www.yelp.ca/biz/pizza-hut-toronto-7",
   "latitude": 43.652607,
   "longitude": -79.471037
 },
 {
   "category": "Italian",
   "address": "1086 Yonge Street\nToronto, ON M4W 2L4",
   "name": "Pizza Hut",
   "phone": "(416) 929-1818",
   "priceRange": "",
   "website": "pizzahut.ca",
   "yelp": "https://www.yelp.ca/biz/pizza-hut-toronto-3",
   "latitude": 43.677842,
   "longitude": -79.390175
 },
 {
   "category": "Italian",
   "address": "1949 Finch Avenue W\nToronto, ON M3N 2V3",
   "name": "Pizza Hut",
   "phone": "(416) 749-4313",
   "priceRange": "",
   "website": "pizzahut.ca",
   "yelp": "https://www.yelp.ca/biz/pizza-hut-toronto-27",
   "latitude": 43.75622,
   "longitude": -79.518034
 },
 {
   "category": "Italian",
   "address": "1577 The Queensway\nUnit 104 - Building C\nToronto, ON M8Z 1T8",
   "name": "Pizza Hut",
   "phone": "(416) 253-5275",
   "priceRange": "",
   "website": "pizzahut.ca",
   "yelp": "https://www.yelp.ca/biz/pizza-hut-toronto-15",
   "latitude": 43.617295,
   "longitude": -79.538378
 },
 {
   "category": "Italian",
   "address": "6005 Yonge Street\nToronto, ON M2M 3W2",
   "name": "Pizza Hut",
   "phone": "(416) 218-0335",
   "priceRange": "",
   "website": "pizzahut.ca",
   "yelp": "https://www.yelp.ca/biz/pizza-hut-toronto-21",
   "latitude": 43.789483,
   "longitude": -79.417202
 },
 {
   "category": "Italian",
   "address": "3416 Bathurst Street\nNorth York, ON M6A 2C2",
   "name": "Pizza Hut",
   "phone": "(416) 784-2922",
   "priceRange": "",
   "website": "pizzahut.ca",
   "yelp": "https://www.yelp.ca/biz/pizza-hut-north-york-9",
   "latitude": 43.727013,
   "longitude": -79.431803
 },
 {
   "category": "Italian",
   "address": "13-1635 Lawrence Avenue\nNorth York, ON M6L 3C9",
   "name": "Pizza Hut",
   "phone": "(416) 241-6006",
   "priceRange": "$11-30",
   "website": "pizzahut.ca",
   "yelp": "https://www.yelp.ca/biz/pizza-hut-north-york-6",
   "latitude": 43.704707,
   "longitude": -79.492273
 },
 {
   "category": "Italian",
   "address": "462 Birchmount Road\nUnit 56\nScarborough, ON M1K 1N8",
   "name": "Pizza Hut",
   "phone": "(416) 693-4545",
   "priceRange": "",
   "website": "pizzahut.ca",
   "yelp": "https://www.yelp.ca/biz/pizza-hut-scarborough-6",
   "latitude": 43.707001,
   "longitude": -79.268149
 },
 {
   "category": "Italian",
   "address": "1564 Royal York Road\nEtobicoke, ON M9P 3C3",
   "name": "Pizza Hut",
   "phone": "(416) 235-2505",
   "priceRange": "",
   "website": "pizzahut.ca",
   "yelp": "https://www.yelp.ca/biz/pizza-hut-etobicoke-4",
   "latitude": 43.696447,
   "longitude": -79.532895
 },
 {
   "category": "Italian",
   "address": "861 York Mills Rd\nSuite 5\nNorth York, ON M3B 1Y4",
   "name": "Pizza Hut",
   "phone": "(416) 385-7805",
   "priceRange": "Under $10",
   "website": "pizzahut.ca",
   "yelp": "https://www.yelp.ca/biz/pizza-hut-north-york-4",
   "latitude": 43.754199,
   "longitude": -79.351382
 },
 {
   "category": "Italian",
   "address": "666 Burnhamthorpe Road\nEtobicoke, ON M9C 2Z3",
   "name": "Pizza Hut",
   "phone": "(416) 622-3669",
   "priceRange": "Under $10",
   "website": "pizzahut.ca",
   "yelp": "https://www.yelp.ca/biz/pizza-hut-etobicoke-3",
   "latitude": 43.64149,
   "longitude": -79.576302
 },
 {
   "category": "Italian",
   "address": "4 - 3351 Lawrence Avenue E\nScarborough, ON M1H 1A8",
   "name": "Pizza Hut",
   "phone": "(416) 439-5550",
   "priceRange": "",
   "website": "pizzahut.ca",
   "yelp": "https://www.yelp.ca/biz/pizza-hut-scarborough-2",
   "latitude": 43.757745,
   "longitude": -79.234841
 },
 {
   "category": "Italian",
   "address": "592 Ellesmere Road\nScarborough, ON M1R 4E9",
   "name": "Pizza Hut",
   "phone": "(416) 298-6628",
   "priceRange": "$11-30",
   "website": "pizzahut.ca",
   "yelp": "https://www.yelp.ca/biz/pizza-hut-scarborough",
   "latitude": 43.763748,
   "longitude": -79.292111
 },
 {
   "category": "Italian",
   "address": "3555 Don Mills Road\nNorth York, ON M2H 3N3",
   "name": "Pizza Hut",
   "phone": "(416) 502-8065",
   "priceRange": "$11-30",
   "website": "pizzahut.ca",
   "yelp": "https://www.yelp.ca/biz/pizza-hut-north-york-2",
   "latitude": 43.794373,
   "longitude": -79.353754
 },
 {
   "category": "Italian",
   "address": "31 Tapscott Road\nUnit B8A\nScarborough, ON M1B 4Y7",
   "name": "Pizza Hut",
   "phone": "(416) 292-9200",
   "priceRange": "",
   "website": "pizzahut.ca",
   "yelp": "https://www.yelp.ca/biz/pizza-hut-scarborough-4",
   "latitude": 43.806702,
   "longitude": -79.222191
 },
 {
   "category": "Italian",
   "address": "392 John Street\nThornhill, ON L3T 5W6",
   "name": "Pizza Hut",
   "phone": "(905) 886-4444",
   "priceRange": "Under $10",
   "website": "pizzahut.ca",
   "yelp": "https://www.yelp.ca/biz/pizza-hut-thornhill",
   "latitude": 43.820398,
   "longitude": -79.388369
 },
 {
   "category": "Italian",
   "address": "3700 Midland Avenue\nUnit 110\nScarborough, ON M1V 4V3",
   "name": "Pizza Hut",
   "phone": "(416) 292-1447",
   "priceRange": "$31-60",
   "website": "pizzahut.ca",
   "yelp": "https://www.yelp.ca/biz/pizza-hut-scarborough-7",
   "latitude": 43.814842,
   "longitude": -79.292354
 },
 {
   "category": "Pizza",
   "address": "755 King St W\nToronto, ON M5V 1N4",
   "name": "Pizza Hut",
   "phone": "(416) 504-6466",
   "priceRange": "",
   "website": "",
   "yelp": "https://www.yelp.ca/biz/pizza-hut-toronto-6",
   "latitude": 43.643673,
   "longitude": -79.404589
 },
 {
   "category": "Pizza",
   "address": "4936 Yonge Street\nToronto, ON M2N 5N5",
   "name": "Pizza Hut",
   "phone": "(416) 225-2679",
   "priceRange": "",
   "website": "pizzahut.ca",
   "yelp": "https://www.yelp.ca/biz/pizza-hut-toronto-28",
   "latitude": 43.764524,
   "longitude": -79.412161
 },
 {
   "category": "Pizza",
   "address": "985 Coxwell Avenue\nToronto, ON M4C 3G4",
   "name": "Pizza Hut",
   "phone": "(416) 465-4333",
   "priceRange": "",
   "website": "pizzahut.ca",
   "yelp": "https://www.yelp.ca/biz/pizza-hut-toronto-25",
   "latitude": 43.69644,
   "longitude": -79.328557
 },
 {
   "category": "Pizza",
   "address": "233 Eglinton Avenue W\nToronto, ON M4R 1A9",
   "name": "Pizza Hut",
   "phone": "(416) 487-4550",
   "priceRange": "",
   "website": "pizzahut.ca",
   "yelp": "https://www.yelp.ca/biz/pizza-hut-toronto-19",
   "latitude": 43.704803,
   "longitude": -79.405689
 },
 {
   "category": "Pizza",
   "address": "2765 Lake Shore Blvd W\nEtobicoke, ON M8V 1H2",
   "name": "Pizza Hut",
   "phone": "(416) 252-5333",
   "priceRange": "$11-30",
   "website": "",
   "yelp": "https://www.yelp.ca/biz/pizza-hut-etobicoke",
   "latitude": 43.601914,
   "longitude": -79.499164
 }
]